{"address": [
  {
    "id": 1,
    "city": "Москва",
    "departments" : [
      {
      "phone": "+7 (495) 925-26-27 (многокан.)",
      "name": "МФ-КОМПЛЕКТ МОСКВА РОЗНИЦА",
      "address":"Московская Область, г. Химки, мкр. Подрезково, ул. Комсомольская, д.14",
      "email" : "mfc@newfurnitura.ru",
      "coordinates": [ 55.944334, 37.336009, "МФК Розница" ],
      "timetable" : [ ["ПН-ПТ", "9:00 - 18:00"], ["СБ-ВС", "ВЫХОДНОЙ"] ],
      "postalCode" : "141446",
      "addressLocality" : "Россия, Московская область, город Химки",
      "streetAddress" : "микрорайон Подрезково, улица Центральная, дом 2/5"
    },
    {
    "phone": "+7 (495) 925-26-27 (многокан.)",
    "name": "МФ-КОМПЛЕКТ МОСКВА ОПТ",
    "address":"Московская Область, г. Химки, мкр. Подрезково, ул. Центральная, д. 2/5",
    "email" : "mfc@newfurnitura.ru",
    "coordinates": [ 55.946249, 37.336728, "МФК Опт" ],
    "timetable" : [ ["ПН-ПТ", "9:00 - 18:00"], ["СБ-ВС", "ВЫХОДНОЙ"] ],
    "postalCode" : "141446",
    "addressLocality" : "Россия, Московская область, город Химки",
    "streetAddress" : "микрорайон Подрезково, улица Центральная, дом 2/5"
  },
  {
  "phone": "+7 (495) 925-26-27 (многокан.)",
  "name": "МФ-КОМПЛЕКТ МОСКВА СНАБЖЕНИЕ",
  "address":"Московская Область, г. Химки, мкр. Подрезково, ул. Комсомольская, д.14",
  "email" : "hrenov@newfurnitura.ru",
  "coordinates": [ 55.944334, 37.336009, "МФК Снабжение" ],
  "timetable" : [ ["ПН-ПТ", "9:00 - 18:00"], ["СБ-ВС", "ВЫХОДНОЙ"] ],
  "postalCode" : "141446",
  "addressLocality" : "Россия, Московская область, город Химки",
  "streetAddress" : "микрорайон Подрезково, улица Центральная, дом 2/5"

}
    ],

      "phone": "+7 (495) 925-26-27",
      "name": "МФ-КОМПЛЕКТ",
      "address":"Московская Область, г. Химки, мкр. Подрезково, ул. Центральная, д. 2/5",
      "email" : "mfc@newfurnitura.ru",
      "coordinates": [ 55.946249, 37.336728, "МФК Опт" ],
      "timetable" : [ ["ПН-ПТ", "9:00 - 18:00"], ["СБ-ВС", "ВЫХОДНОЙ"] ],
      "postalCode" : "141446",
      "addressLocality" : "Россия, Московская область, город Химки",
      "streetAddress" : "микрорайон Подрезково, улица Центральная, дом 2/5"
  },
  {
    "id": 2,
    "city": "Санкт-Петербург",
    "departments" : [],
    "phone": "+7 (812) 384-17-00",
    "name": "МФ-КОМПЛЕКТ САНКТ-ПЕТЕРБУРГ",
    "address": "г. Санкт-Петербург, просп. Маршала Блюхера, д.78Д, оф.8",
    "email" : "mf.stpeterburg@newfurnitura.ru",
    "coordinates": [ 59.978910, 30.472023, "МФК Санкт-Петербург" ],
    "timetable" : [ ["ПН-ПТ", "9:00 - 18:00"], ["СБ-ВС", "ВЫХОДНОЙ"] ],
    "postalCode" : "",
    "addressLocality" : "Россия, г. Санкт-Петербург",
    "streetAddress" : "просп. Маршала Блюхера, д.78Д, оф.8"

  },
  {
    "id": 3,
    "city": "Екатеринбург",
    "departments" : [],
    "phone": "+7 (343) 272-99-22",
    "name": "МФ-КОМПЛЕКТ ЕКАТЕРИНБУРГ",
    "address": "г. Екатеринбург, ул. Елизаветинское шоссе 28, оф. 101",
    "email" : "mf.ekb@newfurnitura.ru",
    "coordinates": [ 56.762943, 60.628605, "МФК Екатеринбург" ],
    "timetable" : [ ["ПН-ПТ", "9:00 - 18:00"], ["СБ-ВС", "ВЫХОДНОЙ"] ],
    "postalCode" : "",
    "addressLocality" : "Россия, г. Екатеринбург",
    "streetAddress" : "ул. Елизаветинское шоссе 28, оф. 101"
  },
  {
    "id": 4,
    "city": "Казань",
    "departments" : [],
    "phone": "+7 (843) 580-60-00",
    "name": "МФ-КОМПЛЕКТ КАЗАНЬ",
    "address": "г. Казань, ул. Гассара, д. 14",
    "email" : "mf.kazan@newfurnitura.ru",
    "coordinates": [ 55.763282, 49.121751, "МФК Казань" ],
    "timetable" : [ ["ПН-ПТ", "8:30 - 17:30"], ["СБ-ВС", "ВЫХОДНОЙ"] ],
    "postalCode" : "",
    "addressLocality" : "Россия, г. Казань",
    "streetAddress" : "ул. Гассара, д. 14"
  },
  {
    "id": 5,
    "city": "Краснодар",
    "departments" : [],
    "phone": "+7 (861) 215-91-11",
    "name": "МФ-КОМПЛЕКТ КРАСНОДАР",
    "address": "г. Краснодар, 4-ый Тихорецкий проезд, д.5, офис 5",
    "email" : "mf.Krasnodar@newfurnitura.ru",
    "coordinates": [ 45.080302, 39.000754, "МФК Краснодар" ],
    "timetable" : [ ["ПН-ПТ", "9:00 - 18:00"], ["СБ-ВС", "ВЫХОДНОЙ"] ],
    "postalCode" : "",
    "addressLocality" : "Россия, г. Краснодар",
    "streetAddress" : "4-ый Тихорецкий проезд, д.5, офис 5"
  },
  {
    "id": 6,
    "city": "Новосибирск",
    "departments" : [],
    "phone": "+7 (383) 286-87-77",
    "name": "МФ-КОМПЛЕКТ НОВОСИБИРСК",
    "address": "г. Новосибирск, ул. Мира, д. 54а, корп. 1",
    "email" : "mf-n@newfurnitura.ru",
    "coordinates": [ 54.961937, 82.922981, "МФК Новосибирск" ],
    "timetable" : [ ["ПН-ПТ", "9:00 - 18:00"], ["СБ-ВС", "ВЫХОДНОЙ"] ],
    "postalCode" : "",
    "addressLocality" : "Россия, г. Новосибирск",
    "streetAddress" : "ул. Мира, д. 54а, корп. 1"
  },
  {
    "id": 7,
    "city": "Ростов-на-Дону",
    "departments" : [],
    "phone": "+7 (863) 306-50-00",
    "name": "МФ-КОМПЛЕКТ РОСТОВ-НА-ДОНУ",
    "address": "г. Ростов-на-Дону, ул. Орская, д. 31м",
    "email" : "mfk.rostov@newfurnitura.ru",
    "coordinates": [ 47.292359, 39.777249, "МФК Ростов-на-Дону" ],
    "timetable" : [ ["ПН-ПТ", "9:00 - 17:00"], ["СБ-ВС", "ВЫХОДНОЙ"] ],
    "postalCode" : "",
    "addressLocality" : "Россия, г. Ростов-на-Дону",
    "streetAddress" : "ул. Орская, д. 31м"
  }
]
}
